[
  {
    "name": "Young",
    "lat": -34.3103512,
    "lon": 148.2971801
  },
  {
    "name": "Yorke Peninsula-Sth",
    "lat": -34.44304,
    "lon": 137.6987969
  },
  {
    "name": "York",
    "lat": -31.8889034,
    "lon": 116.7691483
  },
  {
    "name": "Yarriambiack",
    "lat": -36.0284095,
    "lon": 142.3884677
  },
  {
    "name": "Yarrawonga",
    "lat": -36.0141692,
    "lon": 146.0063494
  },
  {
    "name": "Winchelsea",
    "lat": -38.2419077,
    "lon": 143.9859604
  },
  {
    "name": "Whyalla",
    "lat": -33.0382085,
    "lon": 137.5843572
  },
  {
    "name": "West Wyalong",
    "lat": -33.923661,
    "lon": 147.2050849
  },
  {
    "name": "West Wimmera",
    "lat": -36.9682482,
    "lon": 141.0834156
  },
  {
    "name": "Wentworth",
    "lat": -33.6766099,
    "lon": 142.0114988
  },
  {
    "name": "Wellington",
    "lat": -32.5542815,
    "lon": 148.9515327
  },
  {
    "name": "Wambo",
    "lat": -32.599373,
    "lon": 150.9178859
  },
  {
    "name": "Walgett",
    "lat": -29.7882659,
    "lon": 148.2389866
  },
  {
    "name": "Wakefield",
    "lat": -34.0202248,
    "lon": 138.3626706
  },
  {
    "name": "Waikerie",
    "lat": -34.1815175,
    "lon": 139.9855992
  },
  {
    "name": "Wagga Wagga",
    "lat": -35.115,
    "lon": 147.3677778
  },
  {
    "name": "Toodyay",
    "lat": -31.5511748,
    "lon": 116.4671695
  },
  {
    "name": "Tocumwal",
    "lat": -35.8114914,
    "lon": 145.5653797
  },
  {
    "name": "The Coorong",
    "lat": -35.9108404,
    "lon": 139.4449524
  },
  {
    "name": "Temora",
    "lat": -34.3830356,
    "lon": 147.468586
  },
  {
    "name": "Tatiara",
    "lat": -36.2243075,
    "lon": 140.5065428
  },
  {
    "name": "Tara",
    "lat": -27.248503,
    "lon": 150.4370216
  },
  {
    "name": "Tamworth",
    "lat": -31.0900743,
    "lon": 150.9290159
  },
  {
    "name": "Swan Hill",
    "lat": -35.3390784,
    "lon": 143.5588436
  },
  {
    "name": "Strathalbyn",
    "lat": -35.2576239,
    "lon": 138.8956803
  },
  {
    "name": "Stawell",
    "lat": -37.0586869,
    "lon": 142.7745476
  },
  {
    "name": "St Arnaud",
    "lat": -36.614998,
    "lon": 143.255393
  },
  {
    "name": "Southern Grampians",
    "lat": -37.8720348,
    "lon": 142.2891127
  },
  {
    "name": "Shepparton-W",
    "lat": -36.3831633,
    "lon": 145.3988874
  },
  {
    "name": "Shepparton-E",
    "lat": -36.403594,
    "lon": 145.4968064
  },
  {
    "name": "Scone",
    "lat": -32.0468773,
    "lon": 150.866996
  },
  {
    "name": "Rutherglen",
    "lat": -36.0538594,
    "lon": 146.4601363
  },
  {
    "name": "Rushworth",
    "lat": -36.5860102,
    "lon": 145.01557
  },
  {
    "name": "Roma",
    "lat": -26.5710356,
    "lon": 148.7868137
  },
  {
    "name": "Robinvale",
    "lat": -34.5840409,
    "lon": 142.7739356
  },
  {
    "name": "Renmark",
    "lat": -34.1743516,
    "lon": 140.7468863
  },
  {
    "name": "Quirindi",
    "lat": -31.5021772,
    "lon": 150.6804062
  },
  {
    "name": "Port Pirie",
    "lat": -33.1791249,
    "lon": 138.0058614
  },
  {
    "name": "Port Lincoln",
    "lat": -34.7211905,
    "lon": 135.8592218
  },
  {
    "name": "Pittsworth",
    "lat": -27.7199303,
    "lon": 151.6344713
  },
  {
    "name": "Peterborough",
    "lat": -32.9743928,
    "lon": 138.8354835
  },
  {
    "name": "Parkes",
    "lat": -33.1368067,
    "lon": 148.1754823
  },
  {
    "name": "Orange",
    "lat": -33.2820463,
    "lon": 149.0971567
  },
  {
    "name": "Nyngan",
    "lat": -31.56287,
    "lon": 147.1965904
  },
  {
    "name": "Northern Midlands",
    "lat": -41.8798625,
    "lon": 147.4362844
  },
  {
    "name": "Northam",
    "lat": -31.6535192,
    "lon": 116.6726927
  },
  {
    "name": "Nhill",
    "lat": -36.3331297,
    "lon": 141.6492931
  },
  {
    "name": "Narromine",
    "lat": -32.2317016,
    "lon": 147.9528517
  },
  {
    "name": "Narrogin",
    "lat": -32.9341978,
    "lon": 117.1778676
  },
  {
    "name": "Narrandera",
    "lat": -34.5926463,
    "lon": 146.7000438
  },
  {
    "name": "Narrabri",
    "lat": -30.3278407,
    "lon": 149.5571542
  },
  {
    "name": "Naracoorte",
    "lat": -36.9575267,
    "lon": 140.7413543
  },
  {
    "name": "Murray Bridge",
    "lat": -35.1309451,
    "lon": 139.2651638
  },
  {
    "name": "Mukinbudin",
    "lat": -30.6361807,
    "lon": 118.2949197
  },
  {
    "name": "Mudgee",
    "lat": -32.5980702,
    "lon": 149.5886383
  },
  {
    "name": "Moree",
    "lat": -29.4617202,
    "lon": 149.8407153
  },
  {
    "name": "Morawa",
    "lat": -29.0333305,
    "lon": 116.0267293
  },
  {
    "name": "Moora",
    "lat": -30.6416311,
    "lon": 116.0076376
  },
  {
    "name": "Millmerran",
    "lat": -27.878577,
    "lon": 151.2542015
  },
  {
    "name": "Miles",
    "lat": -26.7296445,
    "lon": 150.1520205
  },
  {
    "name": "Mildura Region",
    "lat": -27.1296983,
    "lon": 152.9618552
  },
  {
    "name": "Merredin",
    "lat": -31.4813329,
    "lon": 118.2779117
  },
  {
    "name": "Maryborough",
    "lat": -25.537583,
    "lon": 152.7019182
  },
  {
    "name": "Mannum",
    "lat": -34.9134482,
    "lon": 139.3125775
  },
  {
    "name": "Mallala",
    "lat": -34.4376942,
    "lon": 138.5103239
  },
  {
    "name": "Loxton Region",
    "lat": -24.8754018,
    "lon": 152.3156333
  },
  {
    "name": "Loxton",
    "lat": -34.4511348,
    "lon": 140.5696644
  },
  {
    "name": "Loddon",
    "lat": -36.4047762,
    "lon": 143.9115536
  },
  {
    "name": "Lockington",
    "lat": -36.266325,
    "lon": 144.4973949
  },
  {
    "name": "Light",
    "lat": -34.4100885,
    "lon": 138.8321181
  },
  {
    "name": "Le Hunte",
    "lat": -25.846,
    "lon": 129.52125
  },
  {
    "name": "Kulin",
    "lat": -32.766108,
    "lon": 118.2315927
  },
  {
    "name": "Kojonup",
    "lat": -33.925403,
    "lon": 117.0554915
  },
  {
    "name": "Kerang",
    "lat": -35.7338373,
    "lon": 143.9204152
  },
  {
    "name": "Katanning",
    "lat": -33.6908682,
    "lon": 117.5551858
  },
  {
    "name": "Karoonda",
    "lat": -35.0938511,
    "lon": 139.8962521
  },
  {
    "name": "Kangaroo Island",
    "lat": -35.8182635,
    "lon": 137.1566125
  },
  {
    "name": "Kalgoorlie",
    "lat": -30.7464139,
    "lon": 121.473223
  },
  {
    "name": "Kadina",
    "lat": -33.9647842,
    "lon": 137.7158969
  },
  {
    "name": "Junee",
    "lat": -34.8150257,
    "lon": 147.672675
  },
  {
    "name": "Jondaryan",
    "lat": -27.3839245,
    "lon": 151.5842807
  },
  {
    "name": "Jamestown",
    "lat": -33.2054221,
    "lon": 138.6053401
  },
  {
    "name": "Irwin",
    "lat": -29.3402747,
    "lon": 115.0541699
  },
  {
    "name": "Inverell-W",
    "lat": -29.7760646,
    "lon": 151.1128767
  },
  {
    "name": "Inverell-E",
    "lat": -29.7760646,
    "lon": 151.1128767
  },
  {
    "name": "Horsham",
    "lat": -36.7148099,
    "lon": 142.2018105
  },
  {
    "name": "Gunnedah",
    "lat": -31.0237593,
    "lon": 150.2036527
  },
  {
    "name": "Gundagai",
    "lat": -35.0614045,
    "lon": 148.1059794
  },
  {
    "name": "Griffith",
    "lat": -34.334545,
    "lon": 146.0081042
  },
  {
    "name": "Grenfell",
    "lat": -33.8967902,
    "lon": 148.160764
  },
  {
    "name": "Goyder",
    "lat": -33.7175888,
    "lon": 139.0369511
  },
  {
    "name": "Goondiwindi",
    "lat": -28.463433,
    "lon": 150.2886154
  },
  {
    "name": "Golden Plains-Sth",
    "lat": -29.3837369,
    "lon": 147.5710838
  },
  {
    "name": "Gnowangerup",
    "lat": -34.084772,
    "lon": 118.3207424
  },
  {
    "name": "Gilgandra",
    "lat": -31.6325819,
    "lon": 148.7044489
  },
  {
    "name": "Geraldton",
    "lat": -28.77035,
    "lon": 114.6147159
  },
  {
    "name": "Forbes",
    "lat": -33.378772,
    "lon": 147.9534388
  },
  {
    "name": "Euroa",
    "lat": -36.773286,
    "lon": 145.582931
  },
  {
    "name": "Esperance",
    "lat": -33.858228,
    "lon": 121.8931606
  },
  {
    "name": "Emerald",
    "lat": -23.5263118,
    "lon": 148.1618622
  },
  {
    "name": "Dubbo",
    "lat": -32.2478964,
    "lon": 148.6026502
  },
  {
    "name": "Dowerin",
    "lat": -31.1157355,
    "lon": 117.0881015
  },
  {
    "name": "Deniliquin",
    "lat": -35.5302183,
    "lon": 144.9597178
  },
  {
    "name": "Dandaragan",
    "lat": -30.5425527,
    "lon": 115.4291508
  },
  {
    "name": "Cunderdin",
    "lat": -31.6511264,
    "lon": 117.2432285
  },
  {
    "name": "Crows Nest",
    "lat": -27.2612975,
    "lon": 152.0555164
  },
  {
    "name": "Creswick",
    "lat": -37.4245857,
    "lon": 143.8939669
  },
  {
    "name": "Cowra",
    "lat": -33.8111285,
    "lon": 148.6935649
  },
  {
    "name": "Corowa",
    "lat": -35.9995747,
    "lon": 146.3906094
  },
  {
    "name": "Cootamundra",
    "lat": -34.6387195,
    "lon": 148.0240804
  },
  {
    "name": "Coonamble",
    "lat": -30.8652097,
    "lon": 148.2623773
  },
  {
    "name": "Coonabarabran",
    "lat": -31.2728076,
    "lon": 149.2733225
  },
  {
    "name": "Condobolin",
    "lat": -33.0880805,
    "lon": 147.1479606
  },
  {
    "name": "Cobram",
    "lat": -35.9197782,
    "lon": 145.6484379
  },
  {
    "name": "Cobar",
    "lat": -31.9666628,
    "lon": 145.3045054
  },
  {
    "name": "Clifton",
    "lat": -27.937772,
    "lon": 151.9184967
  },
  {
    "name": "Clermont",
    "lat": -22.8392872,
    "lon": 147.1550176
  },
  {
    "name": "Clare",
    "lat": -33.8333914,
    "lon": 138.6120042
  },
  {
    "name": "Chinchilla",
    "lat": -26.7501005,
    "lon": 150.6228556
  },
  {
    "name": "Central Highlands",
    "lat": -24.063412,
    "lon": 148.3122553
  },
  {
    "name": "Ceduna",
    "lat": -32.1263581,
    "lon": 133.6742187
  },
  {
    "name": "Buloke",
    "lat": -35.844697,
    "lon": 142.9926704
  },
  {
    "name": "Brookton",
    "lat": -32.3554555,
    "lon": 117.0484617
  },
  {
    "name": "Broadsound",
    "lat": -21.18916,
    "lon": 149.1503841
  },
  {
    "name": "Bridgetown",
    "lat": -33.9580685,
    "lon": 116.137245
  },
  {
    "name": "Biloela",
    "lat": -24.3997711,
    "lon": 150.5141867
  },
  {
    "name": "Bendigo",
    "lat": -36.7590183,
    "lon": 144.2826718
  },
  {
    "name": "Beaufort",
    "lat": -37.4292674,
    "lon": 143.3832189
  },
  {
    "name": "Balranald",
    "lat": -34.043943,
    "lon": 143.7067653
  },
  {
    "name": "Balonne",
    "lat": -28.285835,
    "lon": 147.9436644
  },
  {
    "name": "Avoca",
    "lat": -37.0889278,
    "lon": 143.473745
  },
  {
    "name": "Ararat",
    "lat": -37.2834165,
    "lon": 142.9319447
  },
  {
    "name": "Albury",
    "lat": -36.0737734,
    "lon": 146.9135265
  }
]